{
  "BUENOS AIRES": {
    "nombre": "Buenos Aires",
    "localidades": [
      {
        "nombre": "Casa Hospital San Juan de Dios",
        "direccion": "Dr. Gabriel Ardoino 714, B1704EIP Ramos Mejía, Provincia de Buenos Aires",
        "lat": -34.6380,
        "lng": -58.5559,
        "tipo": "Sanatorio",
        "imagen": ""
      },
      {
        "nombre": "Sanatorio de La Trinidad Palermo",
        "direccion": "Av. Cerviño 4720, CABA",
        "lat": -34.575,
        "lng": -58.424,
        "tipo": "Sanatorio",
        "imagen": "Imagenes/trindad_palermo.jpg"
      },
      {
        "nombre": "Casa Hospital San Juan de Dios - Sede Castelar",
        "direccion": "Sta. Rosa 1355, B1712LTC Castelar, Provincia de Buenos Aires",
        "lat": -34.6435,
        "lng": -58.6567,
        "tipo": "Sanatorio",
        "imagen": ""
      },
      {
        "nombre": "Clínica Sanatorio del Oeste Ituzaingó",
        "direccion": "Gral. Félix Olazábal 319, B1714 Ituzaingó, Provincia de Buenos Aires",
        "lat": -34.654,
        "lng": -58.6605,
        "tipo": "Centro Médico"
      },
      {
        "nombre": "DIM ALTA COMPLEJIDAD",
        "direccion": "Belgrano 137, B1704ETC Ramos Mejía, Provincia de Buenos Aires",
        "lat": -34.6417,
        "lng": -58.5661,
        "tipo": "Sanatorio",
        "prioridad":"blanco"
      },
      {
        "nombre": "Clínica Güemes – Luján",
        "direccion": "Mariano Moreno 1360, B6700 Luján, Provincia de Buenos Aires",
        "lat": -34.5697,
        "lng": -59.1155,
        "tipo": "Sanatorio",
        "prioridad":"blanco"
      },
      {
        "nombre": "Corporación Médica del Oeste",
        "direccion": "Dr. Ramón Carrillo 2157, B1650CSP San Martín, Provincia de Buenos Aires",
        "lat": -34.5757,
        "lng": -58.5390,
        "tipo": "Sanatorio",
        "prioridad":"blanco"
      },
      {
        "nombre": "Clínica Cruz Celeste",
        "direccion": "San Justo Buenos Aires AR, Bermúdez 2895, B1753FVW Villa Luzuriaga",
        "lat": -34.6656,
        "lng": -58.5854,
        "tipo": "Sanatorio",
        "prioridad":"blanco"
      },
      {
        "nombre": "Sanatorio Nuestra Señora del Pilar",
        "direccion": "Av. Gaona 3979, B1702 Ciudadela, Provincia de Buenos Aires",
        "lat": -34.6343,
        "lng": -58.5424,
        "tipo": "Sanatorio",
        "prioridad":"blanco"
      },
      {
        "nombre": "CEPEM",
        "direccion": "Av. Gaona 3979, B1702 Ciudadela, Provincia de Buenos Aires",
        "lat": -34.6446,
        "lng": -58.6195,
        "tipo": "Sanatorio",
        "prioridad":"blanco"
      },
      {
        "nombre": "Clínica Privada del Oeste",
        "direccion": "San Martín 675, B6640 Bragado, Provincia de Buenos Aires",
        "lat": -34.1182,
        "lng": -58.4991,
        "tipo": "Sanatorio",
        "prioridad":"blanco"
      },
      {
        "nombre": "Sanatorio Caseros",
        "direccion": "Lisandro Medina 2285, B1678GUW Caseros, Provincia de Buenos Aires",
        "lat": -34.6029,
        "lng": -58.5639,
        "tipo": "Sanatorio",
        "prioridad":"blanco"
      },
      {
        "nombre": "Hospital Privado SADIV",
        "direccion": "Av. Domingo Faustino Sarmiento 2795, B2930 San Pedro, Provincia de Buenos Aires",
        "lat": -34.6936,
        "lng": -58.6712,
        "tipo": "Sanatorio",
        "prioridad":"blanco"
      },
      {
        "nombre": "Sanatorio San Juan Bautista",
        "direccion": "Av. Eva Perón 4855 B1716, B1716 Libertad, Provincia de Buenos Aires",
        "lat": -34.6936,
        "lng": -58.6712,
        "tipo": "Sanatorio",
        "prioridad":"blanco"
      },
      {
        "nombre": "Clínica Santa María",
        "direccion": "Av. Eva Perón 4855 B1716, B1716 Libertad, Provincia de Buenos Aires",
        "lat": -34.6934,
        "lng": -58.6930,
        "tipo": "Sanatorio",
        "prioridad":"blanco"
      }

    ]
  },
  "TIERRA DEL FUEGO": {
    "nombre": "Tierra del Fuego",
    "localidades": [
      {
        "nombre": "Hospital Regional Rio Grande",
        "direccion": "Florentino Ameghino 709, V9420 Río Grande, Tierra del Fuego",
        "lat": -53.7817,
        "lng": -67.6988,
        "tipo": "Sanatorio",
        "prioridad": "blanco"
      },
      {
        "nombre": "Hospital Regional Gdor. Ernesto Campos",
        "direccion": "Av. 12 de Octubre y Maipú, V9410 Ushuaia, Tierra del Fuego",
        "lat": -54.8136,
        "lng": -68.3236,
        "tipo": "Sanatorio",
        "prioridad":"blanco"
      },
      {
        "nombre": "Sanatorio Fueguino",
        "direccion": "Córdoba 748, V9420 Río Grande, Tierra del Fuego",
        "lat": -53.7706,
        "lng": -67.7098,
        "tipo": "Sanatorio",
        "prioridad":"blanco"
      },
      {
        "nombre": "Clínica CEMEP",
        "direccion": "Rio Grande: 20 de Junio 815, V9420 Río Grande, Tierra del Fuego",
        "lat": -53.7660,
        "lng": -67.7123,
        "tipo": "Sanatorio",
        "prioridad":"blanco"
      },
      {
        "nombre": "Clinica San Jorge (LUCCAU)",
        "direccion": "Onachaga 184, V9410BQC Ushuaia, Tierra del Fuego",
        "lat": -54.8153,
        "lng": -68.3258,
        "tipo": "Sanatorio",
        "prioridad":"blanco"
      }
    ]
  },
  "NEUQUEN": {
    "nombre": "Neuquén",
    "localidades": [
      {
        "nombre": "Clinica san agustin",
        "direccion": "Tte. Candelaria 45, Q8300 Neuquén",
        "lat": -38.9551,
        "lng": -68.0776,
        "tipo": "Sanatorio",
        "prioridad": "blanco"
      },
      {
        "nombre": "Hospital Dr. Horacio Heller",
        "direccion": "DVS Coronel Godoy y Lighuen E. 1549, Q8300 Neuquén",
        "lat": -38.9369,
        "lng": -68.1160,
        "tipo": "Sanatorio",
        "prioridad":"blanco"
      },
      {
        "nombre": "Hospital Dr. Castro Rendon",
        "direccion": "Alderete 159, Q8302 Neuquén",
        "lat": -38.9504,
        "lng": -68.0570,
        "tipo": "Sanatorio",
        "prioridad":"blanco"
      },
      {
        "nombre": "Swiss Medical | Centro Médico Neuquén",
        "direccion": "Gral. Fotheringham 155, Q8300 Neuquén",
        "lat": -38.9532,
        "lng": -68.0689,
        "tipo": "Sanatorio",
        "prioridad":"blanco"
      },
      {
        "nombre": "Clínica Dr. Roberto Raña",
        "direccion": "Tucumán 71, Q8300 Neuquén",
        "lat": -38.9542,
        "lng": -68.0518,
        "tipo": "Sanatorio",
        "prioridad":"blanco"
      },
      {
        "nombre": "Clínica San Lucas",
        "direccion": "Gdor. Francisco Denis 454, Q8300 Neuquén",
        "lat": -38.9497,
        "lng": -68.0885,
        "tipo": "Sanatorio",
        "prioridad":"blanco"
      },
      {
        "nombre": "Policlinico Neuquén",
        "direccion": "Juan Bautista Alberdi 269, Q8300 Neuquén",
        "lat": -38.9530,
        "lng": -68.0554,
        "tipo": "Sanatorio",
        "prioridad":"blanco"
      },
      {
        "nombre": "Clínica Pasteur",
        "direccion": "La Rioja 113, Q8300 Neuquén",
        "lat": -38.9551,
        "lng": -68.0774,
        "tipo": "Sanatorio",
        "prioridad":"blanco"
      },
      {
        "nombre": "Hospital Bouquet Roldán",
        "direccion": "Dr. Teodoro Luis Planas 1915, Q8300 Neuquén",
        "lat": -38.9588,
        "lng": -68.0858,
        "tipo": "Sanatorio",
        "prioridad":"blanco"
      },
      {
        "nombre": "Hospital Zapala",
        "direccion": "Luis Monti 155, Q8340 Zapala, Neuquén",
        "lat": -38.9020,
        "lng": -70.0654,
        "tipo": "Sanatorio",
        "prioridad":"blanco"
      },
      {
        "nombre": "Hospital Complejidad VI Cutral-co",
        "direccion": "Av. Juan Schreiber, Q8322 Plaza Huincul, Neuquén",
        "lat": -38.9370,
        "lng": -69.2124,
        "tipo": "Sanatorio",
        "prioridad":"blanco"
      },
      {
        "nombre": "Hospital Zonal Ricon De Los Sauces",
        "direccion": "Q8319 Rincón de los Sauces, Neuquén",
        "lat": -37.3870,
        "lng": -69.9262,
        "tipo": "Sanatorio",
        "prioridad":"blanco"
      },
      {
        "nombre": "Hospital Zonal Chos Malal",
        "direccion": "Av. Estanislao Flores 650, Q8353AZR Chos Malal, Neuquén",
        "lat": -37.3811,
        "lng": -70.2734,
        "tipo": "Sanatorio",
        "prioridad":"blanco"
      },
      {
        "nombre": "Hospital Dr. Ramón Carrillo",
        "direccion": "Pje. del Pueblo 247, San Martín de los Andes, Neuquén",
        "lat": -40.1484,
        "lng": -71.3289,
        "tipo": "Sanatorio",
        "prioridad":"blanco"
      },
      {
        "nombre": "Sanatorio Plaza Huincul Petroleros Privados",
        "direccion": "Carmen Funes entre Pedro Rotther, Av. del Libertador y, Q8322 Plaza Huincul, Neuquén",
        "lat": -38.9270,
        "lng": -69.1997,
        "tipo": "Sanatorio",
        "prioridad":"blanco"
      }
    ]
  }
}