{
  "nombre": "CORDOBA",
  "sector": "Sector Centro",
  "sanatorios": [
    {
      "nombre": "Hospital Privado Universitario de Córdoba",
      "direccion": "Naciones Unidas 346, X5016 Córdoba",
      "lat": -31.4422,
      "lng": -64.1991,
      "tipo": "Sanatorio",
      "prioridad": "blanco",
      "imagen": "Logo/Cordoba/HospitalPrivadoUniversitario.jpg",
      "logo": "LogoPin/Cordoba/HospitalPrivadoUniversitario.jpg",
      "sector": "privado"
    },
    {
      "nombre": "Sanatorio Allende Nueva Córdoba",
      "direccion": "Obispo Oro 42, X5000BFB Córdoba",
      "lat": -31.4245,
      "lng": -64.1873,
      "tipo": "Sanatorio",
      "prioridad": "blanco",
      "imagen": "Logo/Cordoba/SanatorioAllende.jpg",
      "logo": "LogoPin/Cordoba/SanatorioAllende.jpg",
      "sector": "privado"
    },
    {
      "nombre": "Sanatorio Allende Cerro",
      "direccion": "Av. Pedro Simón Laplace 5749, X5021FPQ Córdoba",
      "lat": -31.3579,
      "lng": -64.2426,
      "tipo": "Sanatorio",
      "prioridad": "blanco",
      "imagen": "Logo/Cordoba/SanatorioAllendeCerro.jpg",
      "logo": "LogoPin/Cordoba/SanatorioAllendeCerro.jpg",
      "sector": "privado"
    },
    {
      "nombre": "Hospital Italiano Córdoba",
      "direccion": "Roma 550, X5004BAL Córdoba",
      "lat": -31.409,
      "lng": -64.1646,
      "tipo": "Sanatorio",
      "prioridad": "blanco",
      "imagen": "Logo/Cordoba/HospitalItalianoCordoba.jpg",
      "logo": "LogoPin/Cordoba/HospitalItalianoCordoba.jpg",
      "sector": "privado"
    },
    {
      "nombre": "Clínica Universitaria Reina Fabiola (C.U.R.F.)",
      "direccion": "Oncativo 1248, X5004FHP Córdoba",
      "lat": -31.4096,
      "lng": -64.168,
      "tipo": "Sanatorio",
      "prioridad": "blanco",
      "imagen": "Logo/Cordoba/ClínicaUniversitaria.jpg",
      "logo": "LogoPin/Cordoba/ClínicaUniversitaria.jpg",
      "sector": "privado"
    },
    {
      "nombre": "Hospital Misericordia",
      "direccion": "Belgrano 1502, X5000 Córdoba",
      "lat": -31.4329,
      "lng": -64.1967,
      "tipo": "Sanatorio",
      "prioridad": "blanco",
      "imagen": "Logo/Cordoba/HospitalMisericordia.jpg",
      "logo": "LogoPin/Cordoba/HospitalMisericordia.jpg",
      "sector": "publico"
    },
    {
      "nombre": "Hospital Rawson",
      "direccion": "Bajada Pucará 2025, X5000 Córdoba",
      "lat": -31.4288,
      "lng": -64.1694,
      "tipo": "Sanatorio",
      "prioridad": "blanco",
      "imagen": "Logo/Cordoba/HospitalRawson.jpg",
      "logo": "LogoPin/Cordoba/HospitalRawson.jpg",
      "sector": "publico"
    },
    {
      "nombre": "Hospital Materno Neonatal Ministro Dr. Ramón Carrillo",
      "direccion": "Manuel Cardeñosa 2900, X5008 Córdoba",
      "lat": -31.3692,
      "lng": -64.2134,
      "tipo": "Sanatorio",
      "prioridad": "blanco",
      "imagen": "Logo/Cordoba/HospitalMaternoNeonatal.jpg",
      "logo": "LogoPin/Cordoba/HospitalMaternoNeonatal.jpg",
      "sector": "publico"
    },
    {
      "nombre": "Clinica y Maternidad del Sol",
      "direccion": "Blvr. Chacabuco 705, X5000 Córdoba",
      "lat": -31.4256,
      "lng": -64.1834,
      "tipo": "Sanatorio",
      "prioridad": "blanco",
      "imagen": "Logo/Cordoba/ClinicayMaternidaddelSol.jpg",
      "logo": "LogoPin/Cordoba/ClinicayMaternidaddelSol.jpg",
      "sector": "privado"
    },
    {
      "nombre": "Clínica Privada Vélez Sarsfield",
      "direccion": "Naciones Unidas 984, X5000 Córdoba",
      "lat": -31.4399,
      "lng": -64.2077,
      "tipo": "Sanatorio",
      "prioridad": "blanco",
      "imagen": "Logo/Cordoba/ClínicaPrivadaVS.jpg",
      "logo": "LogoPin/Cordoba/ClínicaPrivadaVS.jpg",
      "sector": "privado"
    },
    {
      "nombre": "Sanatorio Aconcagua",
      "direccion": "Rondeau 455, X5000 Córdoba",
      "lat": -31.4236,
      "lng": -64.1805,
      "tipo": "Sanatorio",
      "prioridad": "blanco",
      "imagen": "Logo/Cordoba/SanatorioAconcagua.jpg",
      "logo": "LogoPin/Cordoba/SanatorioAconcagua.jpg",
      "sector": "privado"
    },
    {
      "nombre": "Sanatorio Mayo - Córdoba",
      "direccion": "Humberto 1º 520, X5000FAL Córdoba",
      "lat": -31.4077,
      "lng": -64.1887,
      "tipo": "Sanatorio",
      "prioridad": "blanco",
      "imagen": "Logo/Cordoba/SanatorioMayo.jpg",
      "logo": "LogoPin/Cordoba/SanatorioMayo.jpg",
      "sector": "privado"
    },
    {
      "nombre": "Sanatorio de la Cañada",
      "direccion": "Av. J. M. de Pueyrredón 652, X5000 Córdoba",
      "lat": -31.42438,
      "lng": -64.1972,
      "tipo": "Sanatorio",
      "prioridad": "blanco",
      "imagen": "Logo/Cordoba/SanatoriodelaCañada.JPG",
      "logo": "LogoPin/Cordoba/SanatoriodelaCañada.JPG",
      "sector": "privado"
    },
    {
      "nombre": "Clinica Chutro",
      "direccion": "Av. Colón 788, X5000 Córdoba",
      "lat": -31.41,
      "lng": -64.1936,
      "tipo": "Sanatorio",
      "prioridad": "blanco",
      "imagen": "Logo/Cordoba/ClinicaChutro.jpg",
      "logo": "LogoPin/Cordoba/ClinicaChutro.jpg",
      "sector": "privado"
    },
    {
      "nombre": "Instituto Oulton",
      "direccion": "Av. Vélez Sarsfield 562, X5000JJS Córdoba",
      "lat": -31.4215,
      "lng": -64.1896,
      "tipo": "Centro Médico",
      "prioridad": "blanco",
      "imagen": "Logo/Cordoba/InstitutoOulton.jpg",
      "logo": "LogoPin/Cordoba/InstitutoOulton.jpg",
      "sector": "privado"
    },
    {
      "nombre": "Hospital Regional Pasteur",
      "direccion": "Aldo Serrano 1900, X5900 Villa María, Córdoba",
      "lat": -32.394,
      "lng": -63.2606,
      "tipo": "Sanatorio",
      "prioridad": "blanco",
      "imagen": "Logo/Cordoba/HospitalRegionalPasteur.jpg",
      "logo": "LogoPin/Cordoba/HospitalRegionalPasteur.jpg",
      "sector": "publico"
    },
    {
      "nombre": "Clínica Regional del Sud",
      "direccion": "Av. Italia 1262, X5800 Río Cuarto, Córdoba",
      "lat": -33.1286,
      "lng": -64.3515,
      "tipo": "Sanatorio",
      "prioridad": "blanco",
      "imagen": "Logo/Cordoba/ClínicaRegionaldelSud.jpg",
      "logo": "LogoPin/Cordoba/ClínicaRegionaldelSud.jpg",
      "sector": "privado"
    },
    {
      "nombre": "Nuevo Hospital Río Cuarto San Antonio de Padua",
      "direccion": "Guardias Nacionales 1027, X5806 Río Cuarto, Córdoba",
      "lat": -33.10913352432039,
      "lng": -64.3554455981455,
      "tipo": "Sanatorio",
      "prioridad": "blanco",
      "imagen": "Logo/Cordoba/NuevoHospitalRíoCuarto.jpg",
      "logo": "LogoPin/Cordoba/NuevoHospitalRíoCuarto.jpg",
      "sector": "publico"
    },
    {
      "nombre": "Fundación Fecundart",
      "direccion": "Paraná 545, X5000 Córdoba",
      "lat": -31.4245,
      "lng": -64.18,
      "tipo": "Centro Médico",
      "prioridad": "blanco",
      "imagen": "Logo/Cordoba/FundaciónFecundart.jpg",
      "logo": "LogoPin/Cordoba/FundaciónFecundart.jpg",
      "sector": "privado"
    },
    {
      "nombre": "PROCREARTE Río Cuarto",
      "direccion": "Cabrera 1627, X5800 Río Cuarto, Córdoba",
      "lat": -33.1321,
      "lng": -64.3543,
      "tipo": "Centro Médico",
      "prioridad": "blanco",
      "imagen": "Logo/Cordoba/Procrearte.jpg",
      "logo": "LogoPin/Cordoba/Procrearte.jpg",
      "sector": "privado"
    },
    {
      "nombre": "Hospital Regional Jose Bernardo Iturraspe",
      "direccion": "Dominga Cullen 450, X2400 San Francisco, Córdoba",
      "lat": -31.427722066816692,
      "lng": -62.068217398145485,
      "tipo": "Sanatorio",
      "prioridad": "blanco",
      "imagen": "Logo/Cordoba/HospitalRegionalJBIturraspe.jpg",
      "logo": "LogoPin/Cordoba/HospitalRegionalJBIturraspe.jpg",
      "sector": "publico"
    },
    {
      "nombre": "Centro Integral de la Mujer - Cordoba",
      "direccion": "Santiago del Estero 333, X5022 Córdoba",
      "lat": -31.413906118958984,
      "lng": -64.17585001349093,
      "tipo": "Centro Médico",
      "prioridad": "blanco",
      "imagen": "Logo/Cordoba/CentroIntegraldelaMujer.jpg",
      "logo": "LogoPin/Cordoba/CentroIntegraldelaMujer.jpg",
      "sector": "privado"
    },
    {
      "nombre": "Nascentis Medicina Reproductiva",
      "direccion": "Islas del Atlántico Sur 4685, X5022 Córdoba",
      "lat": -31.35436237948528,
      "lng": -64.24054861349094,
      "tipo": "Centro Médico",
      "prioridad": "blanco",
      "imagen": "Logo/Cordoba/Nascentis.jpg",
      "logo": "LogoPin/Cordoba/Nascentis.jpg",
      "sector": "privado"
    }
  ],
  "consultorios": []
}